{"ts": "2026-04-12T14:43:56.809532", "data": [{"name": "Kalpetta", "lat": 11.610278, "lon": 76.08281, "type": "town", "population": 30000, "source": "openstreetmap"}, {"name": "Vythiri", "lat": 11.5560885, "lon": 76.038922, "type": "village", "population": null, "source": "openstreetmap"}, {"name": "Meppadi", "lat": 11.5529455, "lon": 76.1320079, "type": "village", "population": null, "source": "openstreetmap"}, {"name": "Sultan Bathery", "lat": 11.6631885, "lon": 76.259553, "type": "town", "population": 5000, "source": "openstreetmap"}, {"name": "Vaduvanchal", "lat": 11.5548347, "lon": 76.2226984, "type": "village", "population": null, "source": "openstreetmap"}, {"name": "Mananthavady", "lat": 11.8010338, "lon": 76.0056565, "type": "town", "population": null, "source": "openstreetmap"}, {"name": "Naalam Mile", "lat": 11.7560081, "lon": 76.0070307, "type": "village", "population": null, "source": "openstreetmap"}, {"name": "Kellur", "lat": 11.7522667, "lon": 76.008865, "type": "village", "population": null, "source": "openstreetmap"}, {"name": "Peechamcode", "lat": 11.7502953, "lon": 76.0013675, "type": "village", "population": null, "source": "openstreetmap"}, {"name": "Ancham Mile", "lat": 11.7495087, "lon": 76.0176012, "type": "village", "population": null, "source": "openstreetmap"}, {"name": "Pozhuthana", "lat": 11.5876934, "lon": 76.0185741, "type": "village", "population": null, "source": "openstreetmap"}, {"name": "Kaavumannam", "lat": 11.6383895, "lon": 76.0085635, "type": "village", "population": null, "source": "openstreetmap"}, {"name": "Vengappally", "lat": 11.6107661, "lon": 76.04583, "type": "village", "population": null, "source": "openstreetmap"}, {"name": "Government Vocational Higher Secondary School, Mananthavady", "lat": 11.7898818, "lon": 76.0029303, "type": "school", "population": null, "source": "openstreetmap"}, {"name": "Govt College Mananthavady", "lat": 11.7787782, "lon": 76.0015246, "type": "school", "population": null, "source": "openstreetmap"}, {"name": "Morden English school", "lat": 11.7534917, "lon": 76.0069651, "type": "school", "population": null, "source": "openstreetmap"}, {"name": "Dwaraka", "lat": 11.7584401, "lon": 76.0063045, "type": "village", "population": null, "source": "openstreetmap"}, {"name": "Meenangadi", "lat": 11.6594656, "lon": 76.1668396, "type": "village", "population": null, "source": "openstreetmap"}, {"name": "Eachome", "lat": 11.6953539, "lon": 76.0428388, "type": "village", "population": null, "source": "openstreetmap"}, {"name": "Sacred Heart Higher Secondary School", "lat": 11.7597339, "lon": 76.0104461, "type": "school", "population": null, "source": "openstreetmap"}, {"name": "Govtt. Junior Technical High School", "lat": 11.7615999, "lon": 76.0103374, "type": "school", "population": null, "source": "openstreetmap"}, {"name": "Thonichal", "lat": 11.7715455, "lon": 76.0004919, "type": "village", "population": null, "source": "openstreetmap"}, {"name": "Kattikkulam", "lat": 11.8474605, "lon": 76.0630926, "type": "village", "population": null, "source": "openstreetmap"}, {"name": "Anaappara", "lat": 11.8464372, "lon": 76.0368747, "type": "village", "population": null, "source": "openstreetmap"}, {"name": "54", "lat": 11.8287055, "lon": 76.0421877, "type": "village", "population": null, "source": "openstreetmap"}, {"name": "Chettapalam", "lat": 11.8095157, "lon": 76.0152701, "type": "village", "population": null, "source": "openstreetmap"}, {"name": "Ondayangadi", "lat": 11.8243992, "lon": 76.0252641, "type": "village", "population": null, "source": "openstreetmap"}, {"name": "Panamaram", "lat": 11.7390969, "lon": 76.0731104, "type": "town", "population": null, "source": "openstreetmap"}, {"name": "Koyilery", "lat": 11.786852, "lon": 76.0455379, "type": "village", "population": null, "source": "openstreetmap"}, {"name": "Cherukattoor", "lat": 11.7685286, "lon": 76.0611498, "type": "village", "population": null, "source": "openstreetmap"}, {"name": "Kappunchal", "lat": 11.7594011, "lon": 76.0592615, "type": "village", "population": null, "source": "openstreetmap"}, {"name": "Anjukunnu", "lat": 11.7526104, "lon": 76.0372835, "type": "village", "population": null, "source": "openstreetmap"}, {"name": "Aaraam Mile (6th mile)", "lat": 11.7542227, "lon": 76.0270696, "type": "village", "population": null, "source": "openstreetmap"}, {"name": "Vilambukandam", "lat": 11.7118416, "lon": 76.0382866, "type": "village", "population": null, "source": "openstreetmap"}, {"name": "Pachilakkadu", "lat": 11.7108561, "lon": 76.0795012, "type": "village", "population": null, "source": "openstreetmap"}, {"name": "Varummal kadavu", "lat": 11.7221158, "lon": 76.0391235, "type": "village", "population": null, "source": "openstreetmap"}, {"name": "Peruvaka", "lat": 11.7896132, "lon": 76.0130524, "type": "village", "population": null, "source": "openstreetmap"}, {"name": "Payyampalli", "lat": 11.810523, "lon": 76.055507, "type": "village", "population": null, "source": "openstreetmap"}, {"name": "Kammana", "lat": 11.7827341, "lon": 76.0177737, "type": "village", "population": null, "source": "openstreetmap"}, {"name": "Kambalakkad", "lat": 11.6775554, "lon": 76.0746238, "type": "village", "population": null, "source": "openstreetmap"}, {"name": "Arattuthara", "lat": 11.8004763, "lon": 76.0276658, "type": "village", "population": null, "source": "openstreetmap"}, {"name": "Changadakkadavu", "lat": 11.7873956, "lon": 76.0027363, "type": "village", "population": null, "source": "openstreetmap"}, {"name": "Thannikkal", "lat": 11.799054, "lon": 76.0382738, "type": "village", "population": null, "source": "openstreetmap"}, {"name": "Palvelicham", "lat": 11.8219719, "lon": 76.0878625, "type": "village", "population": null, "source": "openstreetmap"}, {"name": "Kundala", "lat": 11.7765397, "lon": 76.0276845, "type": "village", "population": null, "source": "openstreetmap"}, {"name": "Pulikkad", "lat": 11.7694816, "lon": 76.0162261, "type": "village", "population": null, "source": "openstreetmap"}, {"name": "Pathivayal", "lat": 11.7955913, "lon": 76.0083904, "type": "hamlet", "population": null, "source": "openstreetmap"}, {"name": "Pudiyadam", "lat": 11.789546, "lon": 76.0497635, "type": "hamlet", "population": null, "source": "openstreetmap"}, {"name": "Koolivayal", "lat": 11.7606266, "lon": 76.0475183, "type": "village", "population": null, "source": "openstreetmap"}, {"name": "Ambukuthy", "lat": 11.8148761, "lon": 76.0069409, "type": "village", "population": null, "source": "openstreetmap"}, {"name": "Erumad School Ground", "lat": 11.5711404, "lon": 76.265976, "type": "school", "population": null, "source": "openstreetmap"}, {"name": "Pulpally", "lat": 11.7932652, "lon": 76.1643871, "type": "village", "population": null, "source": "openstreetmap"}, {"name": "Muttil", "lat": 11.6418431, "lon": 76.110624, "type": "town", "population": null, "source": "openstreetmap"}, {"name": "Kainatti", "lat": 11.6343825, "lon": 76.0894939, "type": "village", "population": null, "source": "openstreetmap"}, {"name": "Kappamkolly", "lat": 11.5629978, "lon": 76.1220971, "type": "village", "population": null, "source": "openstreetmap"}, {"name": "Chundale", "lat": 11.5740364, "lon": 76.0591416, "type": "village", "population": null, "source": "openstreetmap"}, {"name": "Ambalavayal", "lat": 11.6192026, "lon": 76.2120176, "type": "village", "population": null, "source": "openstreetmap"}, {"name": "Padichira", "lat": 11.8396351, "lon": 76.1789133, "type": "village", "population": null, "source": "openstreetmap"}, {"name": "Thazhe Ammaani", "lat": 11.8423357, "lon": 76.0685794, "type": "hamlet", "population": null, "source": "openstreetmap"}, {"name": "Ammaani", "lat": 11.8442378, "lon": 76.0648786, "type": "hamlet", "population": null, "source": "openstreetmap"}, {"name": "Ambedkar Colony", "lat": 11.8337791, "lon": 76.0748196, "type": "hamlet", "population": null, "source": "openstreetmap"}, {"name": "Kavikkal", "lat": 11.8307555, "lon": 76.0877745, "type": "hamlet", "population": null, "source": "openstreetmap"}, {"name": "Karyambadi", "lat": 11.6765072, "lon": 76.1350705, "type": "village", "population": null, "source": "openstreetmap"}, {"name": "Kenichira", "lat": 11.7231089, "lon": 76.1524023, "type": "village", "population": null, "source": "openstreetmap"}, {"name": "Koliyadi", "lat": 11.6346364, "lon": 76.2773232, "type": "village", "population": null, "source": "openstreetmap"}, {"name": "Thaloor", "lat": 11.5849175, "lon": 76.2542857, "type": "village", "population": null, "source": "openstreetmap"}, {"name": "High School Meppadi", "lat": 11.5604563, "lon": 76.130612, "type": "school", "population": null, "source": "openstreetmap"}, {"name": "GLPS Meenangadi", "lat": 11.6630285, "lon": 76.1670961, "type": "school", "population": null, "source": "openstreetmap"}, {"name": "Kunthani School", "lat": 11.6315066, "lon": 76.2597093, "type": "school", "population": null, "source": "openstreetmap"}, {"name": "Seetha Mount", "lat": 11.8410446, "lon": 76.2013765, "type": "hamlet", "population": null, "source": "openstreetmap"}, {"name": "Lourde Nagar", "lat": 11.8483327, "lon": 76.1857464, "type": "hamlet", "population": null, "source": "openstreetmap"}, {"name": "Adikolly", "lat": 11.7814316, "lon": 76.1888845, "type": "hamlet", "population": null, "source": "openstreetmap"}, {"name": "Benz Driving School Test Ground", "lat": 11.5526385, "lon": 76.134668, "type": "school", "population": null, "source": "openstreetmap"}, {"name": "Paplassery", "lat": 11.7190383, "lon": 76.1892296, "type": "village", "population": null, "source": "openstreetmap"}, {"name": "Bhavans Vidhya Mandir", "lat": 11.6660353, "lon": 76.2372766, "type": "school", "population": null, "source": "openstreetmap"}, {"name": "ASAP Community Skill Park Mananthavadi", "lat": 11.7778243, "lon": 76.0004797, "type": "school", "population": null, "source": "openstreetmap"}, {"name": "G H S Kakkavayal School Ground", "lat": 11.6477979, "lon": 76.1442753, "type": "school", "population": null, "source": "openstreetmap"}, {"name": "Palakara Anganvady", "lat": 11.6660414, "lon": 76.2813776, "type": "school", "population": null, "source": "openstreetmap"}, {"name": "WMO English Acadamy Senior Secondary School, Mandad", "lat": 11.6346047, "lon": 76.1173929, "type": "school", "population": null, "source": "openstreetmap"}, {"name": "GLPS Mundakkuttykunnu", "lat": 11.7672863, "lon": 76.1493393, "type": "school", "population": null, "source": "openstreetmap"}, {"name": "Gups Pinangode", "lat": 11.6182183, "lon": 76.0269165, "type": "school", "population": null, "source": "openstreetmap"}, {"name": "Government Lower Primary School Poomala", "lat": 11.6500151, "lon": 76.2500145, "type": "school", "population": null, "source": "openstreetmap"}, {"name": "alps puthenkunnu", "lat": 11.6497866, "lon": 76.2858245, "type": "school", "population": null, "source": "openstreetmap"}, {"name": "Aup School Vazhavatta", "lat": 11.612664, "lon": 76.1531391, "type": "school", "population": null, "source": "openstreetmap"}, {"name": "Glps Kallupadi", "lat": 11.6341305, "lon": 76.149818, "type": "school", "population": null, "source": "openstreetmap"}, {"name": "gups bavali", "lat": 11.8481192, "lon": 76.1099802, "type": "school", "population": null, "source": "openstreetmap"}, {"name": "SN A Lower Primary School Ground", "lat": 11.8005876, "lon": 76.2088565, "type": "school", "population": null, "source": "openstreetmap"}, {"name": "Snalp School Narayanapuram", "lat": 11.7027993, "lon": 76.2120297, "type": "school", "population": null, "source": "openstreetmap"}, {"name": "Anmup School Gokhale Nagar", "lat": 11.680928, "lon": 76.1823877, "type": "school", "population": null, "source": "openstreetmap"}, {"name": "GUPS Mananthavady", "lat": 11.8015309, "lon": 76.0021429, "type": "school", "population": null, "source": "openstreetmap"}, {"name": "S A L P School Kuppadithara", "lat": 11.6931963, "lon": 76.0129129, "type": "school", "population": null, "source": "openstreetmap"}, {"name": "G L P School Kalpetta", "lat": 11.6083893, "lon": 76.0839043, "type": "school", "population": null, "source": "openstreetmap"}, {"name": "Cno.04 Nallannoor Anganwadi. Muppinad", "lat": 11.5550103, "lon": 76.1720224, "type": "school", "population": null, "source": "openstreetmap"}, {"name": "Govt LP School Vrindavan", "lat": 11.5510152, "lon": 76.004364, "type": "school", "population": null, "source": "openstreetmap"}, {"name": "Buds  School", "lat": 11.6165178, "lon": 76.0055586, "type": "school", "population": null, "source": "openstreetmap"}, {"name": "Government Lower Primary School, Valiyapara", "lat": 11.6087494, "lon": 76.0033, "type": "school", "population": null, "source": "openstreetmap"}, {"name": "W.M.O Speech And Hearing School, Muttil", "lat": 11.6334041, "lon": 76.1200997, "type": "school", "population": null, "source": "openstreetmap"}, {"name": "Government Lower Primary School Cheegavalam", "lat": 11.589178, "lon": 76.2093147, "type": "school", "population": null, "source": "openstreetmap"}, {"name": "Shri Shankara Vidhya Mandhiram", "lat": 11.6389594, "lon": 76.0884974, "type": "school", "population": null, "source": "openstreetmap"}, {"name": "GLPS Appad", "lat": 11.696444, "lon": 76.1729759, "type": "school", "population": null, "source": "openstreetmap"}, {"name": "GLPS , Chulliyode", "lat": 11.59996, "lon": 76.2648596, "type": "school", "population": null, "source": "openstreetmap"}, {"name": "GHSS Meenangadi", "lat": 11.6642287, "lon": 76.1672659, "type": "school", "population": null, "source": "openstreetmap"}, {"name": "GLPS CC Bhoothanam", "lat": 11.6816489, "lon": 76.2029816, "type": "school", "population": null, "source": "openstreetmap"}, {"name": "Kalluvettumthazhe", "lat": 11.7160724, "lon": 76.0188827, "type": "village", "population": null, "source": "openstreetmap"}, {"name": "Mavilamthodu", "lat": 11.8181142, "lon": 76.21616, "type": "village", "population": null, "source": "openstreetmap"}, {"name": "Kappiset", "lat": 11.8029156, "lon": 76.2059502, "type": "village", "population": null, "source": "openstreetmap"}, {"name": "Pinangode", "lat": 11.6187238, "lon": 76.0295278, "type": "village", "population": null, "source": "openstreetmap"}, {"name": "Kottoor", "lat": 11.5658556, "lon": 76.2339013, "type": "village", "population": null, "source": "openstreetmap"}, {"name": "Moonanakuzhy", "lat": 11.6998691, "lon": 76.1848694, "type": "village", "population": null, "source": "openstreetmap"}, {"name": "Government Lower Primary School", "lat": 11.7229917, "lon": 76.286269, "type": "school", "population": null, "source": "openstreetmap"}, {"name": "Erumad", "lat": 11.568791, "lon": 76.2588715, "type": "village", "population": null, "source": "openstreetmap"}, {"name": "St . School", "lat": 11.7383842, "lon": 76.1181995, "type": "school", "population": null, "source": "openstreetmap"}, {"name": "Gvt lp school nelliyambam", "lat": 11.7387314, "lon": 76.098739, "type": "school", "population": null, "source": "openstreetmap"}, {"name": "Anganavadi", "lat": 11.6222277, "lon": 76.1233008, "type": "school", "population": null, "source": "openstreetmap"}, {"name": "Manalvayal", "lat": 11.5510043, "lon": 76.2475555, "type": "village", "population": null, "source": "openstreetmap"}, {"name": "Cheriyamkolly", "lat": 11.7216074, "lon": 76.0199185, "type": "hamlet", "population": null, "source": "openstreetmap"}, {"name": "Kaippattukunnu", "lat": 11.7175224, "lon": 76.0529601, "type": "hamlet", "population": null, "source": "openstreetmap"}, {"name": "Pallikkunnu", "lat": 11.6848622, "lon": 76.0561377, "type": "hamlet", "population": null, "source": "openstreetmap"}, {"name": "Kottathara", "lat": 11.6650598, "lon": 76.0416419, "type": "village", "population": null, "source": "openstreetmap"}, {"name": "Venniyodu", "lat": 11.6792598, "lon": 76.0241865, "type": "village", "population": null, "source": "openstreetmap"}, {"name": "Nadavayal", "lat": 11.7410773, "lon": 76.119078, "type": "village", "population": null, "source": "openstreetmap"}, {"name": "Varadoor", "lat": 11.7139581, "lon": 76.102155, "type": "hamlet", "population": null, "source": "openstreetmap"}, {"name": "Nelliyambam", "lat": 11.7410298, "lon": 76.0969204, "type": "hamlet", "population": null, "source": "openstreetmap"}, {"name": "Cheekkalloor", "lat": 11.724951, "lon": 76.0931666, "type": "hamlet", "population": null, "source": "openstreetmap"}, {"name": "Kaniyambetta", "lat": 11.6953621, "lon": 76.0807517, "type": "village", "population": null, "source": "openstreetmap"}, {"name": "Arinchermala", "lat": 11.705986, "lon": 76.0678014, "type": "hamlet", "population": null, "source": "openstreetmap"}, {"name": "Chulliyode", "lat": 11.6012586, "lon": 76.2551187, "type": "village", "population": null, "source": "openstreetmap"}, {"name": "Madakkara", "lat": 11.619314, "lon": 76.2749174, "type": "village", "population": null, "source": "openstreetmap"}, {"name": "ponnada", "lat": 11.6322347, "lon": 76.0487358, "type": "village", "population": 700, "source": "openstreetmap"}, {"name": "Vengathode", "lat": 11.5894036, "lon": 76.0124999, "type": "hamlet", "population": null, "source": "openstreetmap"}, {"name": "Pakkom", "lat": 11.8017879, "lon": 76.1032386, "type": "village", "population": null, "source": "openstreetmap"}, {"name": "Pariyaram", "lat": 11.6513075, "lon": 76.1028275, "type": "village", "population": null, "source": "openstreetmap"}, {"name": "Athirattukunnu", "lat": 11.7399138, "lon": 76.1660804, "type": "hamlet", "population": null, "source": "openstreetmap"}, {"name": "Cheengavallam", "lat": 11.5911496, "lon": 76.203616, "type": "hamlet", "population": null, "source": "openstreetmap"}, {"name": "farm land", "lat": 11.6589614, "lon": 76.2592599, "type": "settlement", "population": null, "source": "openstreetmap"}, {"name": "pannimunda farmland", "lat": 11.6851938, "lon": 76.1694481, "type": "settlement", "population": null, "source": "openstreetmap"}, {"name": "paddy", "lat": 11.670328, "lon": 76.1659275, "type": "settlement", "population": null, "source": "openstreetmap"}, {"name": "paddy fields", "lat": 11.7118555, "lon": 76.1859706, "type": "settlement", "population": null, "source": "openstreetmap"}, {"name": "farm field", "lat": 11.6843503, "lon": 76.2584455, "type": "settlement", "population": null, "source": "openstreetmap"}, {"name": "thrikaipetta kuzhivayal thodu", "lat": 11.6030177, "lon": 76.1414941, "type": "settlement", "population": null, "source": "openstreetmap"}, {"name": "polar plantation", "lat": 11.5776919, "lon": 76.0649775, "type": "settlement", "population": null, "source": "openstreetmap"}, {"name": "Chundale Estate", "lat": 11.5768998, "lon": 76.054627, "type": "settlement", "population": null, "source": "openstreetmap"}, {"name": "kakkadam thodu", "lat": 11.6825468, "lon": 76.2176049, "type": "settlement", "population": null, "source": "openstreetmap"}, {"name": "Chellode Estate", "lat": 11.5697196, "lon": 76.0368877, "type": "settlement", "population": null, "source": "openstreetmap"}, {"name": "farm  land", "lat": 11.6555208, "lon": 76.2611684, "type": "settlement", "population": null, "source": "openstreetmap"}, {"name": "Farm land", "lat": 11.6447826, "lon": 76.2774299, "type": "settlement", "population": null, "source": "openstreetmap"}]}